[
  {

    "Nom": "Husqvarna- HVR 77",
    "Adresse": "2 Ter rue Epinette 77340 Pontault Combault",
    "Telephone": "01 78 76 55 56",
    "Latitude": 48.78323,
    "Longitude": 2.60446
  },
  {
    "Nom": "Gas Gas - HVR 91",
    "Adresse": "58 route d'Orléans 91310 Montlhéry",
    "Telephone": "01 84 80 24 00",
    "Latitude": 48.64598,
    "Longitude": 2.26434
  },
  {
    "Nom": "Cycles Jacquot",
    "Adresse": "14 rue Carnot 78000 Versailles",
    "Telephone": "01 39 50 06 17",
    "Latitude": 48.80273,
    "Longitude": 2.13498
  },
  {
    "Nom": "Pur Vélo",
    "Adresse": "avenue St Cloud 78000 Versailles",
    "Telephone": "01 39 66 01 99",
    "Latitude": 48.79821,
    "Longitude": 2.12728
  },
  {
    "Nom": "CityMoov",
    "Adresse": "12 rue Arthur Brière 75017 Paris",
    "Telephone": "06 51 31 51 42",
    "Latitude": 48.89541,
    "Longitude": 2.31886
  },
  {
    "Nom": "Patrice DELCAYRE",
    "Adresse": "1 rue Plaine 75020 Paris",
    "Telephone": "01 43 73 06 10",
    "Latitude": 48.8655,
    "Longitude": 2.40694
  },
  {
    "Nom": "3R Cycles",
    "Adresse": "43 avenue René Minier 95250 Beauchamp",
    "Telephone": "06 59 66 82 70",
    "Latitude": 48.99119,
    "Longitude": 2.20537
  },
  {
    "Nom": "Husqvana - HRV Paris",
    "Adresse": "17 boulevard Beaumarchais 75004 Paris",
    "Telephone": "01 45 32 46 45",
    "Latitude": 48.85746,
    "Longitude": 2.36246
  },
  {
    "Nom": "La Chapelle du Vélo",
    "Adresse": "26 rue Cheminots 75018 Paris",
    "Telephone": "07 81 31 24 72",
    "Latitude": 48.89421,
    "Longitude": 2.3584
  },
  {
    "Nom": "Urban Moov",
    "Adresse": "69 rue Henri Barbusse 92110 Clichy",
    "Telephone": "01 42 70 40 64",
    "Latitude": 48.90566,
    "Longitude": 2.31134
  },
  {
    "Nom": "Sos Trottinettes Réparation de Trottinettes Electriques",
    "Adresse": "22 rue Godefroy 92800 Puteaux",
    "Telephone": "09 80 94 55 56",
    "Latitude": 48.88734,
    "Longitude": 2.24294
  },
  {
    "Nom": "SOS Trotinettes- Aubervilliers",
    "Adresse": "12 rue Landy 93300 Aubervilliers",
    "Telephone": "06 05 76 03 63",
    "Latitude": 48.91328,
    "Longitude": 2.38474
  },
  {
    "Nom": "Absolute Scooters",
    "Adresse": "40 avenue St Ouen 75018 Paris",
    "Telephone": "01 58 60 24 11",
    "Latitude": 48.89346,
    "Longitude": 2.33486
  },
  {
    "Nom": "Gas Gas - HVR 77",
    "Adresse": "2 Ter rue Epinette 77340 Pontault Combault",
    "Telephone": "01 78 76 55 56",
    "Latitude": 48.78323,
    "Longitude": 2.60446
  },
  {
    "Nom": "Joce",
    "Adresse": "92 rue St Spire 91100 Corbeil Essonnes",
    "Telephone": "01 60 89 18 74",
    "Latitude": 48.60443,
    "Longitude": 2.47668
  },
  {
    "Nom": "Cycles Aubry",
    "Adresse": "3 Bis rue Neuve St Gilles 91150 Etampes",
    "Telephone": "01 64 94 02 71",
    "Latitude": 48.43297,
    "Longitude": 2.15053
  },
  {
    "Nom": "VELO MONDE",
    "Adresse": "2 rue Ménard 78000 Versailles",
    "Telephone": "01 30 21 32 62",
    "Latitude": 48.80442,
    "Longitude": 2.1339
  },
  {
    "Nom": "Benjamin Dubois",
    "Adresse": "4 rue St Laurent 75010 Paris",
    "Telephone": "09 53 12 07 86",
    "Latitude": 48.8716,
    "Longitude": 2.35557
  },
  {
    "Nom": "Les Cyclistes Branchés",
    "Adresse": "47 avenue Versailles 75016 Paris",
    "Telephone": "09 80 85 62 04",
    "Latitude": 48.85722,
    "Longitude": 2.27482
  },
  {
    "Nom": "Le Comptoir du Vélo",
    "Adresse": "10 avenue Gambetta 75020 Paris",
    "Telephone": "01 40 31 21 50",
    "Latitude": 48.86655,
    "Longitude": 2.39295
  },
  {
    "Nom": "Multi Cycles",
    "Adresse": "26 avenue République 94700 Maisons Alfort",
    "Telephone": "01 43 75 31 43",
    "Latitude": 48.80964,
    "Longitude": 2.43903
  },
  {
    "Nom": "L'Atelier de la Bicyclette",
    "Adresse": "495 rue Vallée 78410 Bouafle",
    "Telephone": "06 68 12 33 82",
    "Latitude": 48.95853,
    "Longitude": 1.89402
  },
  {
    "Nom": "PM 2&3 Roues",
    "Adresse": "6 rue Tilleuls 78960 Voisins le Bretonneux",
    "Telephone": "01 30 43 50 12",
    "Latitude": 48.75923,
    "Longitude": 2.04386
  },
  {
    "Nom": "L'Encyclo",
    "Adresse": "2 rue St Nicolas 78600 Maisons Laffitte",
    "Telephone": "01 39 62 05 34",
    "Latitude": 48.95216,
    "Longitude": 2.14441
  },
  {
    "Nom": "GTE • Go Trottinette Electrique",
    "Adresse": "45 Bis voie Latérale Sud 78310 Coignières",
    "Telephone": "01 30 51 00 10",
    "Latitude": 48.74959,
    "Longitude": 1.90533
  },
  {
    "Nom": "Vélo Services SAS",
    "Adresse": "25 rue Crozatier 75012 Paris",
    "Telephone": "01 43 07 39 05",
    "Latitude": 48.84906,
    "Longitude": 2.38333
  },
  {
    "Nom": "Bicloune",
    "Adresse": "65 avenue Daumesnil 75012 Paris",
    "Telephone": "01 48 05 47 75",
    "Latitude": 48.84073,
    "Longitude": 2.39058
  },
  {
    "Nom": "Atelier Cour Cyclette",
    "Adresse": "40 rue Marat 94200 Ivry sur Seine",
    "Telephone": "09 54 76 94 65",
    "Latitude": 48.81239,
    "Longitude": 2.38921
  },
  {
    "Nom": "Cycle Lorant",
    "Adresse": "23 rue Robert Dupont 92600 Asnières sur Seine",
    "Telephone": "06 51 84 96 87",
    "Latitude": 48.91121,
    "Longitude": 2.30178
  },
  {
    "Nom": "Ridy",
    "Adresse": "59 rue Victor Hugo 93170 Bagnolet",
    "Telephone": "09 83 33 25 66",
    "Latitude": 48.87263,
    "Longitude": 2.42349
  },
  {
    "Nom": "Atelier Renov'velo",
    "Adresse": "6 allée Bernard Palissy 95200 Sarcelles",
    "Telephone": "09 73 25 02 18",
    "Latitude": 48.98992,
    "Longitude": 2.38426
  },
  {
    "Nom": "Versao",
    "Adresse": "84 avenue Georges Clemenceau 94700 Maisons Alfort",
    "Telephone": "01 43 76 27 46",
    "Latitude": 48.80484,
    "Longitude": 2.43579
  },
  {
    "Nom": "A La Petite Reine",
    "Adresse": "14 rue Paroisse 77300 Fontainebleau",
    "Telephone": "01 60 74 57 57",
    "Latitude": 48.40487,
    "Longitude": 2.70197
  },
  {
    "Nom": "BO BICLOU Velo Electrique",
    "Adresse": "9 rue Rome 77144 Montévrain",
    "Telephone": "01 64 44 34 10",
    "Latitude": 48.87682,
    "Longitude": 2.76582
  },
  {
    "Nom": "Colombes Cycles",
    "Adresse": "10 rue Indépendance 92700 Colombes",
    "Telephone": "01 42 42 66 02",
    "Latitude": 48.91922,
    "Longitude": 2.24842
  },
  {
    "Nom": "Addict Cycling",
    "Adresse": "60 grande rue Charles de Gaulle 94130 Nogent sur Marne",
    "Telephone": "01 41 95 23 40",
    "Latitude": 48.83473,
    "Longitude": 2.48823
  },
  {
    "Nom": "Smartinette",
    "Adresse": "51 rue Ordener 75018 Paris",
    "Telephone": "07 55 66 7078",
    "Latitude": 48.89206,
    "Longitude": 2.34557
  },
  {
    "Nom": "Cycles Jacky",
    "Adresse": "1 rue Cutesson 78125 Gazeran",
    "Telephone": "01 30 88 74 39",
    "Latitude": 48.76707,
    "Longitude": 1.82774
  },
  {
    "Nom": "Cycles Evolution",
    "Adresse": "36 Ter rue Paris 94470 Boissy Saint Léger",
    "Telephone": "01 45 69 69 46",
    "Latitude": 48.75252,
    "Longitude": 2.50054
  },
  {
    "Nom": "Alltricks Store Issy-les-Moulineaux",
    "Adresse": "9 rue Auguste Gervais 92130 Issy les Moulineaux",
    "Telephone": "01 30 48 52 82",
    "Latitude": 48.82694,
    "Longitude": 2.27016
  },
  {
    "Nom": "MS 2Roues",
    "Adresse": "192 rue Jean Jaurès, 93230 Romainville",
    "Telephone": "01 48 40 32 38",
    "Latitude": 48.88547,
    "Longitude": 2.43416
  },
  {
    "Nom": "Réparation Trottinette Electrique Essonne",
    "Adresse": "bis 37 rue Bac, 94480 Ablon sur Seine",
    "Telephone": "06 61 61 51 00",
    "Latitude": 48.71904,
    "Longitude": 2.41789
  },
  {
    "Nom": "Mobilityurban",
    "Adresse": "3 boulevard Victor, 75015 Paris",
    "Telephone": "05 87 72 08 50",
    "Latitude": 48.84446,
    "Longitude": 2.29783
  },
  {
    "Nom": "Tof-Bike-Services",
    "Adresse": "2 rue République, 95270 Chaumontel",
    "Telephone": "01 34 68 52 13",
    "Latitude": 49.10754,
    "Longitude": 2.37328
  },
  {
    "Nom": "Quai des cycles",
    "Adresse": "Gare De Nogent Le Perreux 1 place Thêatre, 94130 Nogent sur Marne",
    "Telephone": "07 67 04 23 04",
    "Latitude": 48.84066,
    "Longitude": 2.49414
  },
  {
    "Nom": "Cyclable Châtenay-Malabry",
    "Adresse": "18 rue Jean Longuet, 92290 Châtenay Malabry",
    "Telephone": "01 40 94 08 27",
    "Latitude": 48.76804,
    "Longitude": 2.24092
  },
  {
    "Nom": "CULTURE VELO PARIS 12",
    "Adresse": "90 avenue Daumesnil, 75012 Paris",
    "Telephone": "01 43 14 47 17",
    "Latitude": 48.84427,
    "Longitude": 2.37972
  },
  {
    "Nom": "CYCLABLE E.T.'S BIKE",
    "Adresse": "5 avenue Gabriel Péri, 92500 Rueil Malmaison",
    "Telephone": "09 50 13 66 17",
    "Latitude": 48.87768,
    "Longitude": 2.18352
  },
  {
    "Nom": "Velo Time Paris",
    "Adresse": "41 boulevard Ménilmontant, 75011 Paris",
    "Telephone": "01 45 67 12 30",
    "Latitude": 48.86183,
    "Longitude": 2.38244
  },
  {
    "Nom": "Veloactif",
    "Adresse": "159 rue Verdun, 92150 Suresnes",
    "Telephone": "09 81 12 21 16",
    "Latitude": 48.87652,
    "Longitude": 2.21885
  },
  {
    "Nom": "Culture Vélo",
    "Adresse": "Zac Champlys 575 avenue André Ampère, 77190 Dammarie les Lys",
    "Telephone": "01 64 37 62 22",
    "Latitude": 48.53021,
    "Longitude": 2.62403
  },
  {
    "Nom": "Bouticycle",
    "Adresse": "2 rue Albert Priolet, 78100 Saint Germain en Laye",
    "Telephone": "01 34 51 25 16",
    "Latitude": 48.89786,
    "Longitude": 2.08063
  },
  {
    "Nom": "Rénov Cycle",
    "Adresse": "84 chemin Rambouillet, 78450 Villepreux",
    "Telephone": "06 58 49 15 43",
    "Latitude": 48.82477,
    "Longitude": 1.99356
  },
  {
    "Nom": "Cycle Naturel",
    "Adresse": "2 avenue Jean Jaurès, 78500 Sartrouville",
    "Telephone": "01 30 86 01 00",
    "Latitude": 48.93726,
    "Longitude": 2.16316
  },
  {
    "Nom": "Solex At The BHV Marais",
    "Adresse": "40 rue Verrerie, 75004 Paris",
    "Telephone": "01 42 74 97 23",
    "Latitude": 48.85732,
    "Longitude": 2.35369
  },
  {
    "Nom": "Cycl'emouv",
    "Adresse": "22 avenue Léon Bollée, 75013 Paris",
    "Telephone": "01 83 92 94 54",
    "Latitude": 48.83034,
    "Longitude": 2.36502
  },
  {
    "Nom": "Samt'rot Eden",
    "Adresse": "zone d'aménagement concerté Noyer aux Perdrix, 77170 Servon",
    "Telephone": "01 85 53 97 15",
    "Latitude": 48.72418,
    "Longitude": 2.58309
  },
  {
    "Nom": "Vanmoof",
    "Adresse": "157 avenue France, 75013 Paris",
    "Telephone": "01 86 26 42 58",
    "Latitude": 48.82479,
    "Longitude": 2.36223
  },
  {
    "Nom": "Vélo Electrique France",
    "Adresse": "33 avenue Secrétan, 75019 Paris",
    "Telephone": "01 48 43 51 31",
    "Latitude": 48.88399,
    "Longitude": 2.37503
  },
  {
    "Nom": "NéoVélec",
    "Adresse": "2 rue Joseph Lemarchand, 78114 Magny les Hameaux",
    "Telephone": "01 30 47 74 62",
    "Latitude": 48.74904,
    "Longitude": 1.99105
  }
]